objectid,title,description,location,latitude,longitude
cll001,"Moscow, Idaho",City,"Moscow, Idaho",46.73507168,-117.0000248
cll002,Syringa Mobile Home Park,"Closed, Rural Mobile Home Park","Moscow, Idaho",46.7418864,-116.9472361
cll003,Park Plaza Community,,"Fidley, Minnesota",45.08614,-93.25836
cll004,J&J Trailer Park,,"Ketchum, Idaho",43.68063,-114.364243
cll005,Animas Community,Resident-Owned Cooperative,"Durango, Colorado",37.282249,-107.877762
